{
    "type": "FeatureCollection",
    "name": "Places",
    "crs": {
        "type": "name",
        "properties": { "name": "urn:ogc:def:crs:OGC:1.3:CRS84" }
    },
    "features": [
        {
            "type": "Feature",
            "properties": {
                "name": "Vienna",
                "country": "Austria",
                "description": null
            },
            "geometry": {
                "type": "Point",
                "coordinates": [16.373818900000099, 48.2081743]
            }
        },
        {
            "type": "Feature",
            "properties": {
                "name": "Bratislava",
                "country": "Slovakia",
                "description": null
            },
            "geometry": {
                "type": "Point",
                "coordinates": [17.1077478, 48.1485965]
            }
        },
        {
            "type": "Feature",
            "properties": {
                "name": "Prague",
                "country": "Czech Republic",
                "description": null
            },
            "geometry": {
                "type": "Point",
                "coordinates": [14.4378005, 50.0755381]
            }
        },
        {
            "type": "Feature",
            "properties": {
                "name": "Cesky Krumlov",
                "country": "Czech Republic",
                "description": null
            },
            "geometry": {
                "type": "Point",
                "coordinates": [14.3174657, 48.8127354]
            }
        },
        {
            "type": "Feature",
            "properties": {
                "name": "Budapest",
                "country": "Hungary",
                "description": null
            },
            "geometry": {
                "type": "Point",
                "coordinates": [19.040235, 47.497912]
            }
        },
        {
            "type": "Feature",
            "properties": {
                "name": "Amsterdam",
                "country": "Netherlands",
                "description": null
            },
            "geometry": {
                "type": "Point",
                "coordinates": [4.9035614, 52.3679843]
            }
        },
        {
            "type": "Feature",
            "properties": {
                "name": "Stockholm",
                "country": "Sweden",
                "description": null
            },
            "geometry": {
                "type": "Point",
                "coordinates": [18.068580800000099, 59.3293235]
            }
        },
        {
            "type": "Feature",
            "properties": {
                "name": "Lisbon",
                "country": "Portugal",
                "description": null
            },
            "geometry": {
                "type": "Point",
                "coordinates": [-9.1393366, 38.7222524]
            }
        },
        {
            "type": "Feature",
            "properties": {
                "name": "Lagos",
                "country": "Portugal",
                "description": null
            },
            "geometry": {
                "type": "Point",
                "coordinates": [-8.673027499999989, 37.1027881]
            }
        },
        {
            "type": "Feature",
            "properties": {
                "name": "Ponta Delgada",
                "country": "Portugal (Azores)",
                "description": null
            },
            "geometry": {
                "type": "Point",
                "coordinates": [-25.6686725, 37.7394207]
            }
        },
        {
            "type": "Feature",
            "properties": {
                "name": "Madalena",
                "country": "Portugal (Azores)",
                "description": null
            },
            "geometry": {
                "type": "Point",
                "coordinates": [-28.5185092, 38.5298862]
            }
        },
        {
            "type": "Feature",
            "properties": {
                "name": "Horta",
                "country": "Portugal (Azores)",
                "description": null
            },
            "geometry": {
                "type": "Point",
                "coordinates": [-28.6299812, 38.5348447]
            }
        },
        {
            "type": "Feature",
            "properties": {
                "name": "Istanbul",
                "country": "Turkey",
                "description": null
            },
            "geometry": {
                "type": "Point",
                "coordinates": [28.9783589, 41.0082376]
            }
        },
        {
            "type": "Feature",
            "properties": {
                "name": "Delhi",
                "country": "India",
                "description": null
            },
            "geometry": {
                "type": "Point",
                "coordinates": [77.2217831, 28.6862738]
            }
        },
        {
            "type": "Feature",
            "properties": {
                "name": "Jaisalmer",
                "country": "India",
                "description": null
            },
            "geometry": {
                "type": "Point",
                "coordinates": [70.9083443, 26.9157487]
            }
        },
        {
            "type": "Feature",
            "properties": {
                "name": "Udaipur",
                "country": "India",
                "description": null
            },
            "geometry": {
                "type": "Point",
                "coordinates": [73.712479, 24.585445]
            }
        },
        {
            "type": "Feature",
            "properties": {
                "name": "Jaipur",
                "country": "India",
                "description": null
            },
            "geometry": {
                "type": "Point",
                "coordinates": [75.787270900000095, 26.9124336]
            }
        },
        {
            "type": "Feature",
            "properties": {
                "name": "Jodhpur",
                "country": "India",
                "description": null
            },
            "geometry": {
                "type": "Point",
                "coordinates": [73.0243094, 26.2389469]
            }
        },
        {
            "type": "Feature",
            "properties": {
                "name": "Agra",
                "country": "India",
                "description": null
            },
            "geometry": {
                "type": "Point",
                "coordinates": [78.0080745, 27.1766701]
            }
        },
        {
            "type": "Feature",
            "properties": {
                "name": "New York City",
                "country": "USA",
                "description": null
            },
            "geometry": {
                "type": "Point",
                "coordinates": [-74.0059728, 40.7127753]
            }
        },
        {
            "type": "Feature",
            "properties": {
                "name": "Buffalo",
                "country": "USA",
                "description": null
            },
            "geometry": {
                "type": "Point",
                "coordinates": [-78.8783689, 42.8864468]
            }
        },
        {
            "type": "Feature",
            "properties": {
                "name": "Havanna",
                "country": "Cuba",
                "description": null
            },
            "geometry": {
                "type": "Point",
                "coordinates": [-82.3665956, 23.1135925]
            }
        },
        {
            "type": "Feature",
            "properties": {
                "name": "Viñales",
                "country": "Cuba",
                "description": null
            },
            "geometry": {
                "type": "Point",
                "coordinates": [-83.7066289, 22.6188131]
            }
        },
        {
            "type": "Feature",
            "properties": {
                "name": "Bacalar",
                "country": "Mexico",
                "description": null
            },
            "geometry": {
                "type": "Point",
                "coordinates": [-88.3923946, 18.6782919]
            }
        },
        {
            "type": "Feature",
            "properties": {
                "name": "Mérida",
                "country": "Mexico",
                "description": null
            },
            "geometry": {
                "type": "Point",
                "coordinates": [-89.5925857, 20.9673702]
            }
        },
        {
            "type": "Feature",
            "properties": {
                "name": "Holbox",
                "country": "Mexico",
                "description": null
            },
            "geometry": {
                "type": "Point",
                "coordinates": [-87.2866995, 21.5308421]
            }
        },
        {
            "type": "Feature",
            "properties": {
                "name": "Tulum",
                "country": "Mexico",
                "description": null
            },
            "geometry": {
                "type": "Point",
                "coordinates": [-87.4653502, 20.2114185]
            }
        },
        {
            "type": "Feature",
            "properties": {
                "name": "Valladolid",
                "country": "Mexico",
                "description": null
            },
            "geometry": {
                "type": "Point",
                "coordinates": [-88.2022488, 20.68964]
            }
        },
        {
            "type": "Feature",
            "properties": {
                "name": "Singapore",
                "country": "Singapore",
                "description": null
            },
            "geometry": {
                "type": "Point",
                "coordinates": [103.819836, 1.352083]
            }
        },
        {
            "type": "Feature",
            "properties": {
                "name": "Jakarta",
                "country": "Indonesia",
                "description": null
            },
            "geometry": {
                "type": "Point",
                "coordinates": [106.8283415, -6.180495]
            }
        },
        {
            "type": "Feature",
            "properties": {
                "name": "Ubud",
                "country": "Indonesia",
                "description": null
            },
            "geometry": {
                "type": "Point",
                "coordinates": [115.2624778, -8.5068536]
            }
        },
        {
            "type": "Feature",
            "properties": {
                "name": "Lombok",
                "country": "Indonesia",
                "description": null
            },
            "geometry": {
                "type": "Point",
                "coordinates": [116.3249438, -8.650979]
            }
        },
        {
            "type": "Feature",
            "properties": {
                "name": "Nusa Penida",
                "country": "Indonesia",
                "description": null
            },
            "geometry": {
                "type": "Point",
                "coordinates": [115.5444231, -8.727807]
            }
        },
        {
            "type": "Feature",
            "properties": {
                "name": "Labuan Bajo",
                "country": "Indonesia",
                "description": null
            },
            "geometry": {
                "type": "Point",
                "coordinates": [119.8728421, -8.4538484]
            }
        },
        {
            "type": "Feature",
            "properties": {
                "name": "Maumere",
                "country": "Indonesia",
                "description": null
            },
            "geometry": {
                "type": "Point",
                "coordinates": [122.2146964, -8.6245515]
            }
        },
        {
            "type": "Feature",
            "properties": {
                "name": "Kuala Lumpur",
                "country": "Malaysia",
                "description": null
            },
            "geometry": {
                "type": "Point",
                "coordinates": [101.686855, 3.139003]
            }
        },
        {
            "type": "Feature",
            "properties": {
                "name": "Langkawi",
                "country": "Malaysia",
                "description": null
            },
            "geometry": {
                "type": "Point",
                "coordinates": [99.7901781, 6.378194]
            }
        },
        {
            "type": "Feature",
            "properties": {
                "name": "Cameron Highlands",
                "country": "Malaysia",
                "description": null
            },
            "geometry": {
                "type": "Point",
                "coordinates": [101.3801441, 4.4721201]
            }
        },
        {
            "type": "Feature",
            "properties": {
                "name": "Malakka",
                "country": "Malaysia",
                "description": null
            },
            "geometry": {
                "type": "Point",
                "coordinates": [102.2500868, 2.189594]
            }
        },
        {
            "type": "Feature",
            "properties": {
                "name": "George Town",
                "country": "Malaysia",
                "description": null
            },
            "geometry": {
                "type": "Point",
                "coordinates": [100.3091, 5.4356367]
            }
        },
        {
            "type": "Feature",
            "properties": {
                "name": "Bangkok",
                "country": "Thailand",
                "description": null
            },
            "geometry": {
                "type": "Point",
                "coordinates": [100.5017651, 13.7563309]
            }
        },
        {
            "type": "Feature",
            "properties": {
                "name": "Pai",
                "country": "Thailand",
                "description": null
            },
            "geometry": {
                "type": "Point",
                "coordinates": [98.4404863, 19.3582191]
            }
        },
        {
            "type": "Feature",
            "properties": {
                "name": "Chiang Mai",
                "country": "Thailand",
                "description": null
            },
            "geometry": {
                "type": "Point",
                "coordinates": [98.993128399999904, 18.787747]
            }
        },
        {
            "type": "Feature",
            "properties": {
                "name": "Siem Reap",
                "country": "Cambodia",
                "description": null
            },
            "geometry": {
                "type": "Point",
                "coordinates": [103.855173, 13.3550091]
            }
        },
        {
            "type": "Feature",
            "properties": {
                "name": "Hongkong",
                "country": "Hongkong",
                "description": null
            },
            "geometry": {
                "type": "Point",
                "coordinates": [114.1696121, 22.3192011]
            }
        },
        {
            "type": "Feature",
            "properties": {
                "name": "Cebu City",
                "country": "Philippines",
                "description": null
            },
            "geometry": {
                "type": "Point",
                "coordinates": [123.8854366, 10.3156992]
            }
        },
        {
            "type": "Feature",
            "properties": {
                "name": "Bantayan",
                "country": "Philippines",
                "description": null
            },
            "geometry": {
                "type": "Point",
                "coordinates": [123.7265836, 11.1695121]
            }
        },

        {
            "type": "Feature",
            "properties": {
                "name": "Dubai",
                "country": "U.A.E.",
                "description": null
            },
            "geometry": {
                "type": "Point",
                "coordinates": [55.2707828, 25.2048493]
            }
        },
        {
            "type": "Feature",
            "properties": {
                "name": "Athens",
                "country": "Greece",
                "description": null
            },
            "geometry": {
                "type": "Point",
                "coordinates": [23.7275388, 37.9838096]
            }
        },
        {
            "type": "Feature",
            "properties": {
                "name": "Thasos",
                "country": "Greece",
                "description": null
            },
            "geometry": {
                "type": "Point",
                "coordinates": [24.709070500000099, 40.7766956]
            }
        },
        {
            "type": "Feature",
            "properties": {
                "name": "Brač",
                "country": "Croatia",
                "description": null
            },
            "geometry": {
                "type": "Point",
                "coordinates": [16.6527099, 43.3048913]
            }
        },
        {
            "type": "Feature",
            "properties": {
                "name": "Rovinj",
                "country": "Croatia",
                "description": null
            },
            "geometry": {
                "type": "Point",
                "coordinates": [13.6387067000001, 45.0811661]
            }
        },
        {
            "type": "Feature",
            "properties": {
                "name": "Paris",
                "country": "France",
                "description": null
            },
            "geometry": {
                "type": "Point",
                "coordinates": [2.35222190000002, 48.856614]
            }
        },
        {
            "type": "Feature",
            "properties": {
                "name": "Straßbourg",
                "country": "France",
                "description": null
            },
            "geometry": {
                "type": "Point",
                "coordinates": [7.7581425, 48.5707466]
            }
        },
        {
            "type": "Feature",
            "properties": {
                "name": "Galway",
                "country": "Ireland",
                "description": null
            },
            "geometry": {
                "type": "Point",
                "coordinates": [-9.05679050000003, 53.270668]
            }
        },
        {
            "type": "Feature",
            "properties": {
                "name": "Granada",
                "country": "Spain",
                "description": null
            },
            "geometry": {
                "type": "Point",
                "coordinates": [-3.5985571, 37.1773363]
            }
        },
        {
            "type": "Feature",
            "properties": {
                "name": "Cuenca",
                "country": "Spain",
                "description": null
            },
            "geometry": {
                "type": "Point",
                "coordinates": [-2.1374162, 40.0703925]
            }
        },
        {
            "type": "Feature",
            "properties": {
                "name": "Jesolo",
                "country": "Italy",
                "description": null
            },
            "geometry": {
                "type": "Point",
                "coordinates": [12.6438498, 45.5334198]
            }
        },
        {
            "type": "Feature",
            "properties": {
                "name": "Minsk",
                "country": "Belarus",
                "description": null
            },
            "geometry": {
                "type": "Point",
                "coordinates": [27.558972, 53.9006011]
            }
        },
        {
            "type": "Feature",
            "properties": {
                "name": "Tbilisi",
                "country": "Georgia",
                "description": null
            },
            "geometry": {
                "type": "Point",
                "coordinates": [44.827096, 41.7151377]
            }
        }
    ]
}
